[{"Id":"e36f3dd8-d86d-49de-815d-d434a99075f9","Name":"Lagos Ministry Of Energy And Mineral Resources","FullAddress":"Block 6, The Secretariat, Alausa, Ikeja","Latitude":null,"Longitude":null,"Description":null},{"Id":"d6b690b3-d119-43cc-bb56-7b069a2e1151","Name":" Lagos State Government Secretariat","FullAddress":"Oregun, Ikeja","Latitude":null,"Longitude":null,"Description":null},{"Id":"f1c34fd1-489c-43e4-8252-0b5ba804b4c3","Name":"Lagos State Ministry Of Science & Technology","FullAddress":"Secretariat Rd, Oregun, Ikeja","Latitude":null,"Longitude":null,"Description":null},{"Id":"999a5501-bff6-4352-a355-f47ed93ec02f","Name":"Lagos State Ministry Of Special Duties","FullAddress":"Secretariat Rd, Alausa, Ikeja","Latitude":null,"Longitude":null,"Description":null},{"Id":"da9eb47a-d6f6-4f03-b8fe-bbc1bed719d2","Name":"Lagos State Government Ministry Of Youth And Development","FullAddress":"Community Rd, Ifako-Ijaiye, Ojokoro","Latitude":null,"Longitude":null,"Description":null},{"Id":"a30d5d56-cc64-4b96-9da5-a74fe6882b1a","Name":"Lagos State Ministry of Health","FullAddress":"Unity Road, Ikeja, Lagos","Latitude":null,"Longitude":null,"Description":null},{"Id":"bd2e3990-28f2-4533-b6e1-342ae6461bd2","Name":"Lagos State Government Ministry Of The Environment","FullAddress":"Eko Onibaje, Olorunfunmi St, Lagos","Latitude":null,"Longitude":null,"Description":null},{"Id":"4111a65a-d803-4cb3-93c0-06c3f5a2747f","Name":"Lagos State Ministry of Justice","FullAddress":"34 Allen Ave, Allen, Ikeja","Latitude":null,"Longitude":null,"Description":null},{"Id":"a7dd2f46-4d02-48b4-a10c-caf05b8fa078","Name":" Lagos State Government Ministry Of Youth And Social Development","FullAddress":"11/13 Ojerinde Street, Idi-Araba, Mushin, Idi Oro, Lagos","Latitude":null,"Longitude":null,"Description":null},{"Id":"70f4c251-008e-41fe-9aa5-e7f6a0499f1c","Name":"Federal Ministry of Internal Affairs","FullAddress":"Kingsway Road, Ikoyi, Lagos","Latitude":null,"Longitude":null,"Description":null},{"Id":"d52fcd79-6686-4d0a-9582-64a8ace4470b","Name":"Federal Ministry of Information and Culture","FullAddress":"Herbert Macaulay Way, Garki, Lagos","Latitude":null,"Longitude":null,"Description":null},{"Id":"5753a7b1-aee2-4364-ade3-20af6b727b1c","Name":"Federal Ministry of Commerce","FullAddress":"17a Awolowo Rd, Ikoyi, Lagos","Latitude":null,"Longitude":null,"Description":null},{"Id":"267b79e9-ce68-4ac8-901c-9984981b98bc","Name":"Lagos State Ministry Of Justice Lagos Island","FullAddress":"18 King George V Rd, Lagos Island, Lagos","Latitude":null,"Longitude":null,"Description":null},{"Id":"e2bdccad-efb3-43ef-9f93-2e5b2759ef7c","Name":"Lagos State Ministry of Works and Infrastructure Ikeja","FullAddress":" Lagos State Secretariat, Alausa, Ikeja","Latitude":null,"Longitude":null,"Description":null},{"Id":"379ff3fa-836d-43ec-a1ac-fce1a1fcb683","Name":"Ministry Of Transportation - Lagos State Government","FullAddress":"Oregun Road, Kudirat Abiola Way, Ojota, Lagos","Latitude":null,"Longitude":null,"Description":null},{"Id":"ede12128-943f-464b-8174-189851a757c1","Name":"Ministry of Education, Lagos State Government Secretariat","FullAddress":"Alausa, Ojodu","Latitude":null,"Longitude":null,"Description":null},{"Id":"34dcc84c-1436-46bb-a92d-bfa59ce647e8","Name":"Ministry of Physical Planning and Urban Development","FullAddress":"Block 15, The Secretariat, Mobolaji Johnson Ave, Ikeja, Lagos","Latitude":5678.765,"Longitude":98.876,"Description":"Ministry"},{"Id":"d6f0fbe2-5db8-43cd-b57a-b06acc7fb63a","Name":" Lagos State Ministry of Works and Infrastructure Ikeja","FullAddress":"Lagos State Secretariat, Alausa, Ikeja","Latitude":null,"Longitude":null,"Description":"Ministry"}]